City,Latitude,Longitude,Temperature,Humidity,Cloudiness,Wind Speed,Country,Date
airai,-8.93,125.41,77.58,50.0,6.0,3.47,TL,1604123216.0
narsaq,60.92,-46.05,21.2,79.0,87.0,2.73,GL,1604123217.0
severo-kurilsk,50.68,156.12,40.5,91.0,100.0,35.75,RU,1604123217.0
shar,49.59,81.05,39.56,71.0,100.0,2.48,KZ,1604123217.0
chokurdakh,70.63,147.92,9.32,96.0,99.0,6.8,RU,1604123217.0
oktyabrskiy,54.48,53.47,39.42,73.0,100.0,5.19,RU,1604123217.0
albany,42.6,-73.97,28.78,86.0,36.0,3.67,US,1604123172.0
khatanga,71.97,102.5,-9.71,86.0,0.0,5.95,RU,1604123218.0
vaini,-21.2,-175.2,75.2,78.0,75.0,11.41,TO,1604123218.0
east london,-33.02,27.91,59.0,87.0,20.0,6.93,ZA,1604123179.0
dhilwan,31.52,75.35,73.4,56.0,0.0,4.7,IN,1604123219.0
barranca,-10.75,-77.77,61.79,86.0,100.0,5.86,PE,1604123219.0
meulaboh,4.14,96.13,85.84,62.0,97.0,6.51,ID,1604123219.0
mataura,-46.19,168.86,53.01,85.0,100.0,14.0,NZ,1604123175.0
dikson,73.51,80.55,16.18,96.0,97.0,25.39,RU,1604123219.0
castro,-24.79,-50.01,53.26,93.0,100.0,8.99,BR,1604123220.0
vardo,70.37,31.11,34.25,87.0,25.0,14.38,NO,1604123220.0
lodja,-3.48,23.43,71.1,94.0,52.0,1.43,CD,1604123220.0
mandalgovi,45.76,106.27,33.51,65.0,78.0,19.75,MN,1604123220.0
butaritari,3.07,172.79,82.44,76.0,43.0,19.62,KI,1604123189.0
torbay,47.67,-52.73,33.66,55.0,90.0,14.99,CA,1604123221.0
kandrian,-6.22,149.55,80.33,84.0,100.0,9.22,PG,1604123221.0
jamestown,42.1,-79.24,31.91,92.0,90.0,8.05,US,1604123181.0
wuxue,29.85,115.55,63.52,74.0,98.0,1.23,CN,1604123222.0
kaitangata,-46.28,169.85,54.0,90.0,100.0,8.99,NZ,1604123222.0
atuona,-9.8,-139.03,77.79,76.0,59.0,12.64,PF,1604123181.0
upernavik,72.79,-56.15,19.36,96.0,94.0,2.93,GL,1604123222.0
hermanus,-34.42,19.23,57.0,72.0,0.0,5.01,ZA,1604123175.0
ushuaia,-54.8,-68.3,48.2,76.0,75.0,17.22,AR,1604123223.0
nouadhibou,20.93,-17.03,66.2,93.0,75.0,18.34,MR,1604123223.0
busselton,-33.65,115.33,72.61,54.0,100.0,4.0,AU,1604123223.0
qaanaaq,77.48,-69.36,15.01,89.0,95.0,6.38,GL,1604123224.0
kapaa,22.08,-159.32,73.36,73.0,1.0,4.7,US,1604123224.0
thompson,55.74,-97.86,17.6,85.0,90.0,9.17,CA,1604123103.0
rikitea,-23.12,-134.97,75.72,72.0,0.0,4.54,PF,1604123170.0
cangucu,-31.39,-52.68,55.4,87.0,88.0,4.47,BR,1604123224.0
birjand,32.87,59.22,57.2,2.0,0.0,6.93,IR,1604123173.0
puerto ayora,-0.74,-90.35,69.01,93.0,91.0,10.0,EC,1604123181.0
owando,-0.48,15.9,71.29,95.0,97.0,1.88,CG,1604123225.0
ponta do sol,32.67,-17.1,65.52,48.0,0.0,12.75,PT,1604123225.0
sarankhola,22.31,89.79,82.74,82.0,100.0,4.92,BD,1604123225.0
faya,18.39,42.45,59.88,47.0,0.0,0.81,SA,1604123197.0
punta arenas,-53.15,-70.92,41.49,86.0,75.0,5.82,CL,1604123226.0
coihaique,-45.58,-72.07,48.2,70.0,0.0,8.05,CL,1604123176.0
tahe,52.33,124.73,29.39,97.0,100.0,9.73,CN,1604123226.0
inirida,3.87,-67.92,76.15,93.0,68.0,2.26,CO,1604123227.0
avarua,-21.21,-159.78,75.2,78.0,99.0,12.75,CK,1604123227.0
shelbyville,35.48,-86.46,38.75,100.0,23.0,5.5,US,1604123227.0
turayf,31.67,38.66,62.6,25.0,75.0,4.7,SA,1604123090.0
carnarvon,-24.87,113.63,77.0,65.0,90.0,17.22,AU,1604123228.0
kharp,66.8,65.81,35.82,94.0,100.0,7.47,RU,1604123228.0
kavieng,-2.57,150.8,84.07,70.0,100.0,5.91,PG,1604123228.0
hilo,19.73,-155.09,73.67,83.0,90.0,3.36,US,1604123021.0
fortuna,40.6,-124.16,47.8,93.0,1.0,3.36,US,1604123229.0
hami,42.8,93.45,50.14,39.0,0.0,3.04,CN,1604123229.0
lavrentiya,65.58,-171.0,20.35,89.0,0.0,11.23,RU,1604123229.0
pitimbu,-7.47,-34.81,75.2,94.0,75.0,8.84,BR,1604123230.0
tual,-5.67,132.75,84.02,69.0,10.0,11.86,ID,1604123230.0
japura,-0.32,102.35,93.72,49.0,60.0,0.58,ID,1604123230.0
mogadishu,2.04,45.34,82.4,69.0,75.0,11.41,SO,1604123230.0
kruisfontein,-34.0,24.73,57.0,82.0,0.0,1.74,ZA,1604123231.0
adrar,20.5,-10.07,78.62,17.0,62.0,8.43,MR,1604123198.0
bluff,-46.6,168.33,53.01,85.0,100.0,14.0,NZ,1604123169.0
victoria,22.29,114.16,72.95,62.0,28.0,1.01,HK,1604123104.0
geraldton,-28.77,114.6,71.6,68.0,90.0,17.22,AU,1604123196.0
cape town,-33.93,18.42,58.59,58.0,0.0,17.22,ZA,1604123229.0
new norfolk,-42.78,147.06,67.23,34.0,25.0,4.0,AU,1604123184.0
arlit,18.74,7.39,71.64,22.0,0.0,9.04,NE,1604123232.0
lebu,-37.62,-73.65,51.15,90.0,3.0,10.13,CL,1604123188.0
yabrud,33.97,36.66,59.0,58.0,40.0,6.93,SY,1604123233.0
yellowknife,62.46,-114.35,12.06,85.0,75.0,9.17,CA,1604123233.0
espanola,35.99,-106.08,45.07,60.0,1.0,0.36,US,1604123016.0
saint-joseph,-21.37,55.62,70.72,50.0,75.0,21.92,RE,1604123233.0
esperance,-33.87,121.9,91.4,18.0,18.0,14.99,AU,1604123233.0
mount pleasant,32.79,-79.86,58.48,71.0,75.0,6.93,US,1604123234.0
ostrovnoy,68.05,39.51,32.38,95.0,94.0,19.53,RU,1604123186.0
mamlyutka,54.94,68.54,33.8,80.0,0.0,8.95,KZ,1604123234.0
naryshkino,52.97,35.73,43.7,87.0,100.0,7.25,RU,1604123235.0
grindavik,63.84,-22.43,42.8,81.0,75.0,23.04,IS,1604123235.0
marsh harbour,26.54,-77.06,79.05,85.0,3.0,14.27,BS,1604123235.0
korla,41.76,86.15,51.48,41.0,80.0,6.67,CN,1604123235.0
chuy,-33.7,-53.46,52.57,84.0,99.0,4.92,UY,1604123235.0
port alfred,-33.59,26.89,62.74,63.0,99.0,0.83,ZA,1604123186.0
hobart,-42.88,147.33,64.62,59.0,40.0,17.22,AU,1604123059.0
yamada,39.47,141.95,56.16,55.0,0.0,2.86,JP,1604123236.0
talnakh,69.49,88.4,14.0,85.0,75.0,31.32,RU,1604123236.0
cabo san lucas,22.89,-109.91,72.5,76.0,65.0,5.73,MX,1604123236.0
omsukchan,62.53,155.8,12.74,91.0,93.0,6.64,RU,1604123237.0
hirara,24.8,125.28,79.54,57.0,20.0,16.11,JP,1604123237.0
cherskiy,68.75,161.3,4.06,88.0,90.0,5.64,RU,1604123237.0
tuktoyaktuk,69.45,-133.04,1.4,84.0,40.0,5.82,CA,1604123237.0
torbat-e jam,35.24,60.62,65.07,16.0,0.0,2.42,IR,1604123238.0
wang saphung,17.3,101.77,75.2,88.0,75.0,5.82,TH,1604123238.0
touros,-5.2,-35.46,75.2,94.0,75.0,11.41,BR,1604123238.0
yar-sale,66.83,70.83,34.21,97.0,100.0,13.85,RU,1604123238.0
kavaratti,10.57,72.64,84.2,79.0,40.0,6.93,IN,1604123238.0
lata,40.16,-8.33,57.24,93.0,20.0,3.36,PT,1604123239.0
sao miguel do iguacu,-25.35,-54.24,69.8,73.0,75.0,9.17,BR,1604123239.0
port elizabeth,-33.92,25.57,59.0,77.0,20.0,6.93,ZA,1604123239.0
morrope,-6.54,-80.01,59.0,90.0,100.0,11.97,PE,1604123239.0
las vegas,36.17,-115.14,60.71,25.0,1.0,6.93,US,1604123116.0
muncar,-8.43,114.33,75.85,89.0,100.0,4.18,ID,1604123240.0
iqaluit,63.75,-68.51,19.4,73.0,90.0,10.29,CA,1604123240.0
sao joao da barra,-21.64,-41.05,71.76,93.0,100.0,13.94,BR,1604123240.0
makakilo city,21.35,-158.09,75.16,83.0,90.0,3.36,US,1604123240.0
pekan,3.48,103.4,86.0,79.0,20.0,3.36,MY,1604123241.0
provideniya,64.38,-173.3,21.2,84.0,51.0,6.13,RU,1604123219.0
lagoa,39.05,-27.98,68.43,93.0,100.0,24.94,PT,1604123241.0
omboue,-1.57,9.26,76.73,88.0,98.0,4.59,GA,1604123241.0
zhezkazgan,47.8,67.71,46.15,50.0,3.0,7.09,KZ,1604123241.0
mahebourg,-20.41,57.7,71.6,56.0,20.0,17.22,MU,1604123242.0
warrington,53.39,-2.58,57.88,87.0,75.0,26.4,GB,1604123242.0
barrow,71.29,-156.79,3.2,84.0,20.0,6.93,US,1604123102.0
auki,-8.77,160.7,81.63,80.0,98.0,1.16,SB,1604123242.0
tambopata,-12.73,-69.18,66.29,83.0,97.0,2.55,PE,1604123243.0
mitsamiouli,-11.38,43.28,79.79,72.0,83.0,6.22,KM,1604123243.0
ordu,40.91,37.68,59.0,100.0,20.0,2.24,TR,1604123243.0
yenagoa,4.92,6.26,76.06,94.0,29.0,3.02,NG,1604123243.0
qaqortoq,60.72,-46.03,21.2,79.0,86.0,2.75,GL,1604123244.0
port victoria,0.09,33.98,70.41,73.0,89.0,4.74,KE,1604123244.0
olinda,-8.01,-34.86,80.6,78.0,40.0,6.93,BR,1604123029.0
saint george,37.1,-113.58,54.0,22.0,1.0,1.23,US,1604123104.0
komsomolskiy,40.43,71.72,53.6,22.0,0.0,2.24,UZ,1604123244.0
puerto escondido,15.85,-97.07,75.2,50.0,40.0,6.93,MX,1604123245.0
tamandare,-8.76,-35.1,76.33,87.0,100.0,8.77,BR,1604123034.0
waipawa,-41.41,175.52,60.76,88.0,87.0,23.04,NZ,1604123245.0
deputatskiy,69.3,139.9,-0.09,94.0,100.0,3.29,RU,1604123245.0
maraa,-1.83,-65.37,75.13,95.0,95.0,2.98,BR,1604123245.0
vanimo,-2.67,141.3,85.24,65.0,84.0,6.89,PG,1604123246.0
mapiripan,2.89,-72.13,76.26,83.0,96.0,3.85,CO,1604123246.0
hithadhoo,-0.6,73.08,83.98,73.0,100.0,10.69,MV,1604123246.0
gimli,50.63,-96.99,37.4,82.0,100.0,27.51,CA,1604123246.0
kondinskoye,59.65,67.41,33.58,92.0,93.0,11.3,RU,1604123247.0
kargasok,59.06,80.86,33.89,96.0,100.0,8.99,RU,1604123247.0
clyde river,70.47,-68.59,15.8,85.0,90.0,3.36,CA,1604123247.0
gorontalo,0.54,123.06,86.79,61.0,50.0,6.62,ID,1604123247.0
batagay-alyta,67.8,130.41,2.7,92.0,100.0,0.43,RU,1604123247.0
tautira,-17.73,-149.15,81.28,65.0,20.0,4.7,PF,1604123248.0
pisco,-13.7,-76.22,62.78,88.0,90.0,4.7,PE,1604123248.0
belaya gora,68.53,146.42,0.25,93.0,93.0,3.85,RU,1604123229.0
impfondo,1.64,18.07,72.81,96.0,79.0,2.59,CG,1604123248.0
tasiilaq,65.61,-37.64,32.0,96.0,100.0,17.22,GL,1604123248.0
karema,-6.82,30.44,80.26,46.0,78.0,11.68,TZ,1604123249.0
tigil,57.8,158.67,32.32,93.0,77.0,6.24,RU,1604123202.0
saint-philippe,-21.36,55.77,70.66,50.0,75.0,21.92,RE,1604123249.0
alofi,-19.06,-169.92,75.2,88.0,99.0,16.11,NU,1604123177.0
alice springs,-23.7,133.88,82.4,12.0,0.0,9.17,AU,1604123155.0
panjab,34.39,67.02,46.31,21.0,0.0,1.95,AF,1604123250.0
el reno,35.53,-97.95,51.01,54.0,0.0,4.0,US,1604123250.0
beaufort,5.35,115.75,84.11,74.0,40.0,3.36,MY,1604123250.0
los llanos de aridane,28.66,-17.92,73.4,33.0,20.0,11.41,ES,1604123250.0
glubokiy,48.52,40.33,56.8,85.0,90.0,3.06,RU,1604123250.0
namibe,-15.2,12.15,74.28,75.0,76.0,6.53,AO,1604123251.0
nortelandia,-14.45,-56.8,70.56,88.0,100.0,3.6,BR,1604123251.0
maneadero,31.72,-116.57,61.48,66.0,46.0,0.96,MX,1604123251.0
wanaka,-44.7,169.15,59.25,66.0,100.0,4.43,NZ,1604123173.0
comodoro rivadavia,-45.87,-67.5,50.0,61.0,0.0,3.36,AR,1604123251.0
bethel,41.37,-73.41,28.72,92.0,1.0,5.64,US,1604123252.0
bengkulu,-3.8,102.27,83.61,71.0,69.0,6.8,ID,1604123252.0
lazaro cardenas,17.96,-102.2,77.59,87.0,47.0,4.47,MX,1604123252.0
ribeira grande,38.52,-28.7,68.99,92.0,100.0,20.67,PT,1604123194.0
san jeronimo,-11.95,-75.28,46.69,73.0,100.0,0.92,PE,1604123252.0
san cristobal,7.77,-72.22,66.78,91.0,86.0,2.84,VE,1604123253.0
dingle,11.0,122.67,85.37,77.0,100.0,12.84,PH,1604123253.0
rocha,-34.48,-54.33,43.88,91.0,35.0,1.61,UY,1604123210.0
morro agudo,-20.73,-48.06,66.2,77.0,0.0,10.29,BR,1604123253.0
bredasdorp,-34.53,20.04,55.4,71.0,13.0,7.72,ZA,1604123173.0
mwandiga,-4.83,29.66,71.6,94.0,40.0,4.94,TZ,1604123254.0
kodinar,20.79,70.7,88.2,32.0,0.0,7.78,IN,1604123254.0
mandiana,10.63,-8.68,70.11,53.0,4.0,0.31,GN,1604123254.0
laguna,38.42,-121.42,53.89,66.0,1.0,3.13,US,1604123254.0
arraial do cabo,-22.97,-42.03,70.92,81.0,100.0,12.82,BR,1604123255.0
paamiut,61.99,-49.67,26.67,88.0,67.0,21.16,GL,1604123255.0
fandriana,-20.23,47.38,58.82,60.0,57.0,4.14,MG,1604123255.0
broken hill,-31.95,141.43,69.8,49.0,18.0,14.99,AU,1604123255.0
haldwani,29.22,79.52,77.0,57.0,0.0,4.61,IN,1604123056.0
turtas,58.94,69.13,33.66,91.0,92.0,10.33,RU,1604123256.0
bowen,-20.02,148.23,91.4,41.0,0.0,16.11,AU,1604123212.0
saint-denis,48.92,2.33,53.2,87.0,90.0,9.17,FR,1604123256.0
sabang,5.89,95.32,82.24,77.0,74.0,14.63,ID,1604123256.0
bodden town,19.28,-81.25,81.09,84.0,0.0,5.99,KY,1604123257.0
bikin,46.82,134.26,46.11,61.0,100.0,8.75,RU,1604123257.0
aklavik,68.22,-135.01,0.45,84.0,99.0,3.36,CA,1604123257.0
dahegam,23.17,72.82,84.2,26.0,0.0,9.17,IN,1604123257.0
ranghulu,46.65,124.87,57.54,35.0,76.0,26.53,CN,1604123258.0
aksu,41.12,80.26,54.99,38.0,19.0,2.48,CN,1604123258.0
codrington,-38.27,141.97,56.05,77.0,73.0,12.97,AU,1604123258.0
cairns,-16.92,145.77,87.03,62.0,40.0,8.05,AU,1604123109.0
hasaki,35.73,140.83,65.14,48.0,20.0,13.87,JP,1604123183.0
yumen,40.28,97.2,49.98,42.0,99.0,21.47,CN,1604123258.0
tongren,27.72,109.19,57.0,88.0,100.0,2.59,CN,1604123259.0
maturin,9.75,-63.18,74.84,96.0,97.0,4.92,VE,1604123259.0
dali,25.7,100.18,70.86,60.0,61.0,3.96,CN,1604123259.0
mar del plata,-38.0,-57.56,48.52,93.0,0.0,5.82,AR,1604123259.0
karpogory,64.0,44.45,32.18,95.0,12.0,6.49,RU,1604123246.0
huarmey,-10.07,-78.15,62.46,85.0,100.0,7.63,PE,1604123260.0
yebaishou,41.4,119.64,58.53,29.0,0.0,18.72,CN,1604123260.0
sabinas hidalgo,26.5,-100.17,54.97,61.0,0.0,2.64,MX,1604123260.0
maku,39.29,44.45,60.8,38.0,75.0,2.24,IR,1604123260.0
anna,51.48,40.43,48.76,93.0,95.0,4.63,RU,1604123261.0
abancay,-13.63,-72.88,58.53,68.0,88.0,3.18,PE,1604123261.0
abu dhabi,24.47,54.37,76.23,69.0,0.0,5.82,AE,1604123231.0
ilulissat,69.22,-51.1,19.4,73.0,98.0,3.36,GL,1604123261.0
sulina,45.16,29.65,50.47,75.0,29.0,14.03,RO,1604123261.0
srikakulam,18.3,83.9,86.22,45.0,68.0,4.65,IN,1604123238.0
broome,42.25,-75.83,29.52,80.0,90.0,1.25,US,1604123262.0
hanzhong,33.07,107.03,58.84,50.0,100.0,1.12,CN,1604123262.0
klyuchi,52.27,79.17,38.19,79.0,98.0,6.29,RU,1604123262.0
kahului,20.89,-156.47,74.5,61.0,20.0,10.29,US,1604123263.0
mocuba,-16.84,36.99,84.04,51.0,7.0,4.97,MZ,1604123263.0
mariental,-24.63,17.97,71.11,27.0,99.0,7.78,NA,1604123263.0
kodiak,57.79,-152.41,35.6,64.0,90.0,8.05,US,1604123233.0
witbank,-25.87,29.23,65.23,59.0,46.0,15.05,ZA,1604123264.0
champerico,14.3,-91.92,64.02,96.0,28.0,7.63,GT,1604123264.0
toguchin,55.24,84.39,34.63,95.0,100.0,11.07,RU,1604123264.0
sandur,15.1,76.55,81.54,52.0,0.0,6.02,IN,1604123265.0
soe,-9.86,124.28,85.53,37.0,21.0,9.35,ID,1604123265.0
hambantota,6.12,81.12,87.8,74.0,40.0,6.93,LK,1604123232.0
whitehorse,60.72,-135.05,16.75,78.0,90.0,9.17,CA,1604123229.0
caravelas,-17.71,-39.25,73.96,90.0,66.0,6.26,BR,1604123266.0
saskylakh,71.92,114.08,-1.86,84.0,2.0,5.46,RU,1604123199.0
tiarei,-17.53,-149.33,81.28,65.0,20.0,4.7,PF,1604123266.0
klaksvik,62.23,-6.59,46.4,81.0,39.0,16.11,FO,1604123266.0
fort saint james,54.43,-124.25,28.4,96.0,55.0,2.91,CA,1604123267.0
bandarbeyla,9.49,50.81,80.42,69.0,39.0,13.38,SO,1604123267.0
krasnoselkup,65.7,82.47,17.31,97.0,100.0,18.03,RU,1604123267.0
richards bay,-28.78,32.04,69.98,72.0,65.0,11.21,ZA,1604123267.0
kimbe,-5.55,150.14,79.63,83.0,95.0,0.89,PG,1604123268.0
constitucion,-35.33,-72.42,56.41,71.0,0.0,2.93,CL,1604123268.0
mount gambier,-37.83,140.77,57.2,67.0,90.0,13.87,AU,1604123204.0
dunedin,-45.87,170.5,53.56,88.0,96.0,10.56,NZ,1604123269.0
usolye,59.43,56.68,35.01,83.0,100.0,4.0,RU,1604123269.0
ketchikan,55.34,-131.65,45.3,87.0,90.0,8.05,US,1604123269.0
lahan,26.73,86.5,87.49,40.0,39.0,3.91,NP,1604123270.0
shakhtinsk,49.71,72.59,35.6,74.0,0.0,0.29,KZ,1604123270.0
nueva guinea,11.69,-84.46,72.95,95.0,100.0,1.45,NI,1604123270.0
vila velha,-20.33,-40.29,75.2,94.0,90.0,6.93,BR,1604122979.0
bambanglipuro,-7.95,110.28,85.21,67.0,65.0,11.01,ID,1604123271.0
sokoni,-6.43,39.55,78.15,83.0,40.0,7.34,TZ,1604123271.0
nemuro,43.32,145.57,48.2,66.0,75.0,9.17,JP,1604123271.0
isangel,-19.55,169.27,82.4,69.0,20.0,13.87,VU,1604123271.0
ballina,-28.87,153.57,71.82,88.0,40.0,19.46,AU,1604123272.0
ahipara,-35.17,173.17,65.35,91.0,35.0,11.32,NZ,1604123272.0
amga,60.9,131.96,5.07,89.0,95.0,3.02,RU,1604123272.0
san quintin,30.48,-115.95,48.0,21.0,91.0,8.99,MX,1604123272.0
antalaha,-14.9,50.28,70.48,80.0,92.0,8.57,MG,1604123273.0
saint-pierre,-21.34,55.48,71.29,50.0,75.0,21.92,RE,1604123273.0
dillon,34.42,-79.37,50.34,71.0,1.0,6.93,US,1604123239.0
flinders,-34.58,150.86,69.15,70.0,35.0,5.01,AU,1604123273.0
ancud,-41.87,-73.82,44.78,81.0,0.0,4.7,CL,1604123170.0
songkhla,6.83,100.67,89.6,62.0,75.0,3.36,TH,1604123274.0
salamiyah,35.01,37.05,70.39,50.0,100.0,1.61,SY,1604123274.0
la ronge,55.1,-105.28,23.0,79.0,100.0,17.22,CA,1604123224.0
san patricio,28.02,-97.52,53.55,100.0,1.0,3.36,US,1604123252.0
hovd,48.01,91.64,35.2,69.0,4.0,4.18,MN,1604123275.0
takoradi,4.88,-1.76,77.52,90.0,20.0,6.35,GH,1604123275.0
fairbanks,64.84,-147.72,9.23,85.0,90.0,2.44,US,1604123224.0
pingshan,22.99,114.71,82.0,48.0,67.0,1.01,CN,1604123275.0
guaruja,-23.99,-46.26,66.99,26.0,92.0,5.88,BR,1604123187.0
amalapuram,16.58,82.02,86.0,55.0,93.0,5.82,IN,1604123276.0
gamboma,-1.88,15.86,72.41,93.0,100.0,4.25,CG,1604123276.0
nizhnyaya omka,55.43,74.94,36.99,90.0,97.0,10.78,RU,1604123276.0
kysyl-syr,63.9,122.76,-2.72,87.0,34.0,2.44,RU,1604123277.0
nikolskoye,59.7,30.79,43.29,93.0,90.0,4.47,RU,1604123192.0
bonavista,48.65,-53.11,30.2,86.0,100.0,3.36,CA,1604123277.0
buraydah,26.33,43.98,60.8,38.0,0.0,12.37,SA,1604123277.0
najran,17.49,44.13,68.0,30.0,0.0,7.02,SA,1604123277.0
bethal,-26.46,29.47,62.51,84.0,90.0,11.01,ZA,1604123278.0
baculin,7.45,126.58,82.92,74.0,100.0,1.68,PH,1604123278.0
mitu,1.2,-70.17,73.87,95.0,41.0,1.74,CO,1604123278.0
mantua,45.17,10.78,43.36,93.0,0.0,2.24,IT,1604123279.0
mungwi,-10.17,31.37,74.64,46.0,6.0,7.25,ZM,1604123279.0
superior,46.72,-92.1,34.29,74.0,90.0,6.93,US,1604123279.0
oksfjord,70.24,22.35,24.87,73.0,9.0,19.46,NO,1604123279.0
eyl,7.98,49.82,84.11,56.0,96.0,8.1,SO,1604123279.0
naze,28.37,129.48,77.0,53.0,40.0,21.92,JP,1604123169.0
daeni,44.83,28.12,45.75,93.0,45.0,10.29,RO,1604123280.0
port hedland,-20.32,118.57,91.4,43.0,0.0,19.46,AU,1604123281.0
poanas,25.77,-103.62,56.89,41.0,91.0,4.9,MX,1604123282.0
leningradskiy,69.38,178.42,18.18,92.0,63.0,14.7,RU,1604123282.0
manggar,-2.88,108.27,85.64,68.0,73.0,3.51,ID,1604123282.0
tiksi,71.69,128.87,6.13,95.0,98.0,2.84,RU,1604123283.0
appleton,44.26,-88.42,28.08,63.0,1.0,4.7,US,1604123010.0
georgetown,5.41,100.34,85.06,74.0,20.0,9.17,MY,1604123068.0
raychikhinsk,49.78,129.41,41.11,64.0,100.0,17.09,RU,1604123284.0
doctor arroyo,23.67,-100.18,51.06,76.0,0.0,5.48,MX,1604123239.0
norton,-17.88,30.7,71.01,53.0,0.0,11.01,ZW,1604123284.0
katsuura,35.13,140.3,64.44,51.0,20.0,11.41,JP,1604123284.0
hokitika,-42.72,170.97,55.49,90.0,100.0,15.86,NZ,1604123285.0
cidreira,-30.18,-50.21,62.08,72.0,85.0,7.99,BR,1604123285.0
sillamae,59.4,27.75,45.39,90.0,21.0,3.29,EE,1604123285.0
gallup,35.53,-108.74,37.4,74.0,1.0,3.36,US,1604123285.0
natal,-5.79,-35.21,75.2,94.0,75.0,12.75,BR,1604123286.0
oriximina,-1.77,-55.87,76.08,93.0,99.0,3.42,BR,1604123286.0
sri aman,1.24,111.46,89.31,70.0,40.0,2.24,MY,1604123126.0
linhares,-19.39,-40.07,73.45,90.0,98.0,3.47,BR,1604123286.0
rawson,-43.3,-65.1,57.52,49.0,0.0,9.57,AR,1604123213.0
mangrol,21.12,70.12,87.42,34.0,0.0,7.4,IN,1604123287.0
san andres,12.58,-81.7,78.8,94.0,75.0,4.7,CO,1604123287.0
santiago de cao,-7.96,-79.24,61.84,89.0,99.0,11.63,PE,1604123287.0
terrace,54.52,-128.6,35.6,93.0,90.0,6.93,CA,1604123100.0
udachnyy,66.42,112.4,3.2,84.0,90.0,2.24,RU,1604123288.0
krasnystaw,50.98,23.17,36.68,100.0,23.0,4.7,PL,1604123288.0
villazon,-22.09,-65.59,42.78,71.0,43.0,9.46,BO,1604123288.0
defiance,41.33,-84.45,33.35,69.0,1.0,4.7,US,1604123288.0
okha,53.57,142.95,38.66,75.0,30.0,6.13,RU,1604123289.0
berdigestyakh,62.1,126.7,1.09,87.0,25.0,2.77,RU,1604123289.0
vao,-22.67,167.48,74.48,86.0,27.0,16.35,NC,1604123289.0
clarence town,-32.58,151.78,74.71,38.0,90.0,20.8,AU,1604123289.0
wuwei,37.93,102.64,49.69,43.0,0.0,5.86,CN,1604123289.0
belyy yar,53.6,91.39,35.6,93.0,40.0,8.95,RU,1604123290.0
porto novo,6.5,2.6,80.6,88.0,40.0,9.17,BJ,1604123290.0
souillac,-20.52,57.52,71.6,56.0,20.0,17.22,MU,1604123184.0
bambous virieux,-20.34,57.76,72.73,56.0,20.0,17.22,MU,1604123290.0
necochea,-38.55,-58.74,48.99,79.0,0.0,5.99,AR,1604123291.0
port lincoln,-34.73,135.87,60.62,67.0,45.0,12.82,AU,1604123291.0
mareeba,-17.0,145.43,87.31,58.0,19.0,7.0,AU,1604123291.0
norman wells,65.28,-126.83,6.8,84.0,75.0,4.7,CA,1604123291.0
rehburg-loccum,52.47,9.2,56.26,93.0,90.0,5.82,DE,1604123291.0
seoul,37.57,126.98,64.94,48.0,75.0,10.67,KR,1604123292.0
bobo dioulasso,11.18,-4.3,73.4,60.0,0.0,2.24,BF,1604123292.0
danshui,22.8,114.47,74.82,70.0,77.0,5.84,CN,1604123292.0
nijar,36.97,-2.21,64.2,48.0,0.0,13.87,ES,1604123292.0
hofn,64.25,-15.21,45.54,80.0,27.0,18.75,IS,1604123217.0
san marcos,33.14,-117.17,59.68,77.0,1.0,0.67,US,1604123293.0
atar,20.52,-13.05,80.17,17.0,84.0,8.39,MR,1604123293.0
nioro,13.35,-15.75,73.65,49.0,63.0,1.68,GM,1604123293.0
zhangjiakou,40.81,114.88,52.68,34.0,0.0,16.82,CN,1604123294.0
dubbo,-32.25,148.62,66.2,48.0,90.0,8.05,AU,1604123167.0
ystad,55.43,13.82,49.87,100.0,90.0,8.05,SE,1604123294.0
doha,25.29,51.53,85.21,58.0,0.0,8.05,QA,1604123084.0
narasannapeta,18.42,84.05,85.33,47.0,51.0,3.98,IN,1604123295.0
druzhba,52.04,33.95,44.62,85.0,99.0,5.84,UA,1604123295.0
bredy,52.42,60.34,43.92,58.0,89.0,11.7,RU,1604123295.0
tayu,-6.54,111.05,85.73,66.0,39.0,5.61,ID,1604123295.0
tsumeb,-19.23,17.72,78.48,41.0,84.0,8.97,NA,1604123296.0
faanui,-16.48,-151.75,79.02,74.0,2.0,15.73,PF,1604123296.0
ngunguru,-35.62,174.5,68.0,92.0,21.0,1.99,NZ,1604123296.0
mount isa,-20.73,139.5,89.6,11.0,15.0,6.93,AU,1604123241.0
manaus,-3.1,-60.02,77.88,88.0,0.0,3.36,BR,1604123288.0
abu kamal,34.45,40.92,72.9,18.0,1.0,6.93,SY,1604123297.0
sao jose da coroa grande,-8.9,-35.15,76.39,87.0,99.0,8.84,BR,1604123297.0
kuching,1.55,110.33,87.42,70.0,40.0,5.82,MY,1604123297.0
bluefield,37.27,-81.22,34.34,74.0,20.0,3.36,US,1604123297.0
hualmay,-11.1,-77.61,62.38,84.0,100.0,5.5,PE,1604123298.0
brownsville,25.9,-97.5,58.15,87.0,1.0,3.36,US,1604123068.0
anuradhapura,8.36,80.42,91.26,45.0,100.0,5.41,LK,1604123298.0
sitka,57.05,-135.33,46.4,87.0,90.0,23.04,US,1604123298.0
sandwick,60.0,-1.25,50.0,76.0,100.0,18.34,GB,1604123298.0
zhenlai,45.85,123.3,55.98,37.0,38.0,27.36,CN,1604123299.0
manzanillo,20.34,-77.12,75.87,92.0,83.0,8.16,CU,1604123299.0
padang,-0.95,100.35,84.51,66.0,66.0,5.41,ID,1604123299.0
hervey bay,-25.3,152.85,82.11,54.0,0.0,25.28,AU,1604123185.0
guerrero negro,27.98,-114.06,66.11,66.0,35.0,7.87,MX,1604123300.0
ambilobe,-13.2,49.05,86.63,34.0,12.0,7.87,MG,1604123300.0
longyearbyen,78.22,15.64,14.68,83.0,54.0,2.28,SJ,1604123300.0
ixtapa,20.7,-105.2,80.6,78.0,75.0,2.28,MX,1604123300.0
pacific grove,36.62,-121.92,52.7,87.0,1.0,10.29,US,1604123215.0
neiafu,-18.65,-173.98,77.0,83.0,75.0,10.29,TO,1604123301.0
turbat,26.0,63.04,86.85,10.0,0.0,14.41,PK,1604123301.0
pangkalanbuun,-2.68,111.62,80.08,89.0,100.0,4.52,ID,1604123301.0
nishihara,26.18,127.76,79.84,54.0,40.0,20.8,JP,1604123301.0
saint-leu,-21.15,55.28,69.8,50.0,75.0,21.92,RE,1604123302.0
miri,4.41,114.01,86.0,79.0,40.0,5.82,MY,1604123302.0
ferrol,43.48,-8.24,63.9,88.0,75.0,17.22,ES,1604123302.0
nome,64.5,-165.41,19.53,79.0,1.0,12.75,US,1604123302.0
grand forks,47.94,-97.43,38.84,86.0,75.0,26.4,US,1604123303.0
erenhot,43.65,111.98,41.72,46.0,0.0,27.18,CN,1604123303.0
buala,-8.14,159.59,83.46,70.0,78.0,2.33,SB,1604123303.0
bilibino,68.05,166.44,5.09,89.0,99.0,1.66,RU,1604123303.0
nizhniy ingash,56.2,96.53,24.98,91.0,100.0,8.28,RU,1604123304.0
nanortalik,60.14,-45.24,27.1,91.0,85.0,10.04,GL,1604123304.0
cervo,43.67,-7.41,59.0,85.0,65.0,13.0,ES,1604123304.0
gabu,12.28,-14.22,69.37,89.0,29.0,2.17,GW,1604123304.0
cabitan,12.29,123.34,84.13,74.0,100.0,9.46,PH,1604123305.0
diamantino,-14.41,-56.45,71.02,91.0,99.0,4.5,BR,1604123010.0
palana,59.12,159.97,31.12,95.0,8.0,8.12,RU,1604123305.0
itamarandiba,-17.86,-42.86,66.42,98.0,99.0,3.04,BR,1604123306.0
bordighera,43.78,7.66,56.73,82.0,75.0,10.29,IT,1604123306.0
roma,43.21,-75.46,25.27,79.0,1.0,0.85,US,1604123178.0
ovalle,-30.6,-71.2,49.68,79.0,0.0,0.81,CL,1604123306.0
kirovskiy,45.09,133.51,50.32,57.0,97.0,6.8,RU,1604123307.0
moranbah,-22.0,148.05,94.03,17.0,0.0,17.25,AU,1604123307.0
raudeberg,61.99,5.14,46.0,83.0,52.0,13.56,NO,1604123307.0
yulara,-25.24,130.99,86.0,9.0,31.0,8.05,AU,1604123307.0
lithgow,-33.48,150.15,58.89,91.0,62.0,1.01,AU,1604123308.0
naila,50.32,11.7,50.22,99.0,98.0,5.99,DE,1604123308.0
wanning,18.8,110.4,80.11,73.0,95.0,15.32,CN,1604123308.0
rawah,34.48,41.91,73.22,19.0,0.0,4.38,IQ,1604123308.0
kununurra,-15.77,128.73,102.2,22.0,77.0,4.7,AU,1604123309.0
liverpool,53.41,-2.98,57.94,87.0,75.0,26.4,GB,1604123309.0
sobolevo,54.43,31.9,46.08,96.0,100.0,5.37,RU,1604123309.0
olafsvik,64.89,-23.71,40.03,85.0,71.0,2.93,IS,1604123309.0
moose factory,51.26,-80.61,26.6,63.0,90.0,8.05,CA,1604123309.0
obo,5.4,26.49,72.54,89.0,89.0,2.28,CF,1604123310.0
menongue,-14.66,17.69,70.29,69.0,80.0,4.94,AO,1604123310.0
muisne,0.6,-80.03,74.46,84.0,100.0,5.77,EC,1604123310.0
kathu,7.92,98.33,87.33,70.0,20.0,9.17,TH,1604123311.0
nhulunbuy,-12.23,136.77,89.6,55.0,2.0,13.87,AU,1604123311.0
manokwari,-0.87,134.08,84.97,73.0,89.0,9.82,ID,1604123311.0
toledo,39.83,-4.0,55.11,59.0,15.0,1.25,ES,1604123311.0
glendive,47.11,-104.71,52.57,46.0,75.0,18.34,US,1604123312.0
reconquista,-29.15,-59.65,52.07,76.0,10.0,7.0,AR,1604123312.0
quirinopolis,-18.45,-50.45,71.04,83.0,77.0,6.46,BR,1604123312.0
gaoual,11.75,-13.2,68.43,65.0,15.0,1.43,GN,1604123313.0
phan thiet,10.93,108.1,85.55,70.0,64.0,8.05,VN,1604123313.0
kota belud,6.35,116.43,86.0,79.0,20.0,6.93,MY,1604123313.0
ternate,0.8,127.4,84.49,73.0,36.0,13.0,ID,1604123313.0
abu zabad,12.35,29.25,81.27,57.0,55.0,5.37,SD,1604123314.0
khandyga,62.67,135.6,0.23,87.0,65.0,2.77,RU,1604123314.0
molina de segura,38.05,-1.21,52.34,74.0,0.0,1.01,ES,1604123314.0
wilmington,34.23,-77.94,53.6,76.0,1.0,8.05,US,1604123011.0
lerwick,60.15,-1.15,50.0,76.0,100.0,18.34,GB,1604123315.0
ritchie,-29.04,24.6,64.4,77.0,90.0,5.82,ZA,1604123315.0
khasan,42.43,130.64,53.98,68.0,100.0,18.59,RU,1604123246.0
indramayu,-6.33,108.32,87.03,59.0,44.0,7.87,ID,1604123315.0
mackay,-21.15,149.2,86.0,55.0,5.0,19.46,AU,1604123184.0
nabire,-3.37,135.48,86.13,66.0,44.0,4.43,ID,1604123316.0
loding,67.3,14.75,41.0,90.0,75.0,16.11,NO,1604123316.0
cheremukhovo,60.35,59.99,37.26,85.0,65.0,7.52,RU,1604123316.0
harper,4.38,-7.72,76.8,90.0,36.0,9.15,LR,1604123316.0
kawalu,-7.38,108.21,86.95,61.0,69.0,1.81,ID,1604123317.0
beyneu,45.32,55.2,55.87,38.0,0.0,20.87,KZ,1604123317.0
ewa beach,21.32,-158.01,75.43,83.0,90.0,3.36,US,1604123230.0
odweyne,9.41,45.06,78.12,45.0,12.0,5.19,SO,1604123317.0
jinchang,38.5,102.17,48.78,44.0,0.0,4.47,CN,1604123317.0
iturama,-19.73,-50.2,68.76,74.0,73.0,12.64,BR,1604123318.0
karratha,-20.74,116.85,88.09,43.0,0.0,16.24,AU,1604123197.0
lucea,18.45,-78.17,78.67,83.0,40.0,2.24,JM,1604123318.0
royan,45.63,-1.03,51.03,100.0,0.0,1.12,FR,1604123318.0
halifax,44.65,-63.57,34.43,74.0,100.0,9.17,CA,1604123059.0
porto velho,-8.76,-63.9,77.0,94.0,75.0,2.24,BR,1604123181.0
tagusao,9.19,117.81,82.24,80.0,100.0,4.25,PH,1604123319.0
fraserburgh,57.69,-2.02,47.3,81.0,100.0,19.46,GB,1604123319.0
sola,-13.88,167.55,80.35,82.0,100.0,17.02,VU,1604123319.0
saint-raymond,45.47,-73.61,27.59,63.0,0.0,2.24,CA,1604123320.0
kedougou,12.56,-12.17,71.46,43.0,5.0,1.63,SN,1604123320.0
loandjili,-4.76,11.86,73.4,100.0,40.0,4.7,CG,1604123320.0
pevek,69.7,170.31,21.63,98.0,100.0,6.44,RU,1604123320.0
merauke,-8.47,140.33,84.67,73.0,10.0,17.05,ID,1604123320.0
riyadh,24.69,46.72,68.0,45.0,0.0,6.04,SA,1604123221.0
chapayevka,47.47,36.35,54.18,73.0,100.0,5.99,UA,1604123321.0
rampura,30.25,75.23,87.85,12.0,0.0,8.43,IN,1604123321.0
lovozero,68.0,35.01,23.86,96.0,29.0,6.13,RU,1604123321.0
akwatia,6.04,-0.81,71.29,96.0,18.0,0.51,GH,1604123321.0
acapulco,16.86,-99.89,80.31,75.0,88.0,3.31,MX,1604123322.0
dharmadam,11.78,75.43,86.0,74.0,20.0,1.12,IN,1604123322.0
bathsheba,13.22,-59.52,80.6,88.0,75.0,14.99,BB,1604123322.0
taoudenni,22.68,-3.98,70.54,28.0,67.0,10.2,ML,1604123249.0
bad sassendorf,51.58,8.17,55.67,97.0,98.0,1.99,DE,1604123323.0
deep river,46.1,-77.5,23.0,73.0,1.0,2.24,CA,1604123323.0
san bartolome de tirajana,27.92,-15.57,75.31,41.0,0.0,5.82,ES,1604123323.0
abu samrah,35.3,37.18,70.36,45.0,99.0,2.3,SY,1604123323.0
xinzhou,38.41,112.73,57.4,29.0,3.0,8.12,CN,1604123324.0
miramar,25.99,-80.23,77.85,100.0,90.0,8.05,US,1604123324.0
ayan,56.45,138.17,30.61,89.0,51.0,2.68,RU,1604123324.0
ankazoabo,-22.28,44.52,84.97,28.0,0.0,3.27,MG,1604123324.0
sisimiut,66.94,-53.67,19.27,91.0,84.0,8.88,GL,1604123325.0
bud,39.45,-86.18,32.11,92.0,1.0,4.88,US,1604123325.0
marzuq,14.4,46.47,73.04,24.0,0.0,3.42,YE,1604123325.0
naron,43.52,-8.15,63.88,88.0,75.0,17.22,ES,1604123325.0
lucapa,-8.42,20.74,70.38,92.0,62.0,0.58,AO,1604123325.0
rantepao,-2.97,119.9,77.94,79.0,100.0,1.57,ID,1604123187.0
bath,51.38,-2.36,57.02,89.0,90.0,11.01,GB,1604123326.0
laguna de perlas,12.34,-83.67,78.66,87.0,100.0,5.32,NI,1604123326.0
linxia,35.6,103.21,45.97,54.0,21.0,1.86,CN,1604123326.0
havoysund,71.0,24.66,30.2,63.0,22.0,32.21,NO,1604123327.0
pochutla,15.74,-96.47,75.0,91.0,100.0,4.03,MX,1604123327.0
honningsvag,70.98,25.97,34.88,81.0,29.0,19.48,NO,1604123327.0
teixeira,-7.22,-37.25,64.65,98.0,97.0,3.78,BR,1604123327.0
palmer,42.16,-72.33,21.92,92.0,1.0,2.33,US,1604123327.0
dukat,62.55,155.55,11.05,92.0,94.0,5.37,RU,1604123328.0
yaan,7.38,8.57,73.58,92.0,39.0,4.32,NG,1604123328.0
yerbogachen,61.28,108.01,12.54,91.0,100.0,6.53,RU,1604123328.0
coffs harbour,-30.3,153.13,79.97,65.0,40.0,26.4,AU,1604123329.0
fenoarivo,-18.93,47.44,59.0,62.0,75.0,12.75,MG,1604123329.0
martapura,-3.42,114.85,85.14,71.0,100.0,2.46,ID,1604123329.0
haines junction,60.75,-137.51,17.6,72.0,100.0,4.7,CA,1604123329.0
skibbereen,51.55,-9.27,57.2,93.0,75.0,29.97,IE,1604123330.0
valparaiso,-33.04,-71.63,51.8,100.0,90.0,2.24,CL,1604123309.0
puerto quijarro,-17.78,-57.77,71.73,62.0,10.0,6.26,BO,1604123330.0
talaya,61.38,152.75,20.43,91.0,98.0,3.74,RU,1604123330.0
revelstoke,50.98,-118.2,39.2,93.0,1.0,8.05,CA,1604123330.0
shebekino,50.41,36.91,44.6,93.0,90.0,6.71,RU,1604123331.0
vostok,46.49,135.88,36.93,94.0,99.0,4.25,RU,1604123248.0
goderich,43.75,-81.72,33.8,74.0,97.0,4.7,CA,1604123331.0
lavos,40.09,-8.83,57.02,93.0,20.0,3.36,PT,1604123331.0
batagay,67.63,134.63,-2.87,91.0,100.0,2.13,RU,1604123331.0
cayenne,4.93,-52.33,78.8,100.0,40.0,9.26,GF,1604123204.0
kiyasovo,56.35,53.12,35.01,91.0,100.0,1.01,RU,1604123332.0
beira,-19.84,34.84,78.96,76.0,89.0,11.01,MZ,1604123332.0
fuente de oro,3.46,-73.61,74.16,79.0,74.0,3.31,CO,1604123332.0
warrnambool,-38.38,142.48,59.0,72.0,76.0,1.01,AU,1604123333.0
sloboda,51.14,40.3,50.45,93.0,100.0,4.36,RU,1604123333.0
shahrud,36.42,54.98,64.67,27.0,0.0,3.8,IR,1604123333.0
shieli,44.17,66.75,62.31,28.0,0.0,9.75,KZ,1604123333.0
coquimbo,-29.95,-71.34,53.6,87.0,90.0,4.7,CL,1604123165.0
chumikan,54.72,135.31,36.01,82.0,100.0,9.17,RU,1604123334.0
barraute,48.43,-77.63,19.4,67.0,1.0,4.7,CA,1604123334.0
berbera,10.44,45.01,85.55,61.0,1.0,5.39,SO,1604123334.0
borogontsy,62.67,131.17,-1.64,90.0,66.0,3.06,RU,1604123335.0
kurchum,48.57,83.65,40.78,67.0,9.0,5.21,KZ,1604123335.0
vung tau,10.35,107.08,84.58,72.0,42.0,5.84,VN,1604123335.0
vilcun,-38.65,-72.23,46.4,100.0,90.0,1.05,CL,1604123335.0
maldonado,-34.67,-54.92,48.61,93.0,0.0,4.7,UY,1604123336.0
enshi,30.3,109.48,60.06,83.0,100.0,0.31,CN,1604123336.0
upata,8.01,-62.4,77.0,93.0,100.0,6.06,VE,1604123336.0
shimoda,34.67,138.95,59.2,48.0,20.0,14.99,JP,1604123336.0
carutapera,-1.2,-46.02,76.26,89.0,63.0,6.38,BR,1604123337.0
yeppoon,-23.13,150.73,89.6,46.0,6.0,14.99,AU,1604123219.0
ryotsu,38.08,138.43,62.6,55.0,20.0,8.05,JP,1604123337.0
arona,28.1,-16.68,72.09,21.0,0.0,17.22,ES,1604123337.0
eureka,40.8,-124.16,47.12,93.0,1.0,3.36,US,1604123266.0
itoman,26.12,127.67,79.88,54.0,40.0,20.8,JP,1604123338.0
lorengau,-2.02,147.27,83.7,72.0,96.0,1.1,PG,1604123338.0
mormugao,15.4,73.8,87.8,55.0,40.0,4.7,IN,1604123338.0
te anau,-45.42,167.72,54.5,71.0,76.0,8.61,NZ,1604123339.0
kembe,4.62,21.89,73.62,85.0,57.0,1.9,CF,1604123339.0
gasa,31.5,34.47,73.92,100.0,76.0,1.99,PS,1604123339.0
bardiyah,31.76,25.09,68.59,69.0,19.0,9.19,LY,1604123339.0
tokur,53.13,132.9,29.5,93.0,100.0,3.22,RU,1604123340.0
lasa,46.62,10.7,29.12,100.0,0.0,1.12,IT,1604123340.0
whitianga,-36.83,175.7,66.0,94.0,50.0,1.99,NZ,1604123340.0
ruteng,-8.61,120.47,72.03,92.0,71.0,0.54,ID,1604123340.0
chernyshevskiy,63.01,112.47,1.49,88.0,2.0,4.76,RU,1604123340.0
careiro da varzea,-3.2,-59.81,77.86,88.0,0.0,3.36,BR,1604123341.0
watsa,3.04,29.54,70.3,84.0,67.0,1.83,CD,1604123341.0
tsuruga,35.65,136.06,60.71,49.0,0.0,2.77,JP,1604123341.0
kindu,-2.95,25.95,71.29,93.0,94.0,1.95,CD,1604123341.0
belmonte,-15.86,-38.88,75.2,83.0,0.0,5.82,BR,1604123342.0
santa cruz,-17.8,-63.17,71.6,43.0,40.0,14.99,BO,1604123063.0
assomada,15.1,-23.68,77.0,78.0,0.0,25.28,CV,1604123342.0
batsfjord,70.63,29.72,27.9,93.0,27.0,11.95,NO,1604123342.0
fort nelson,58.81,-122.7,14.0,92.0,20.0,4.7,CA,1604123342.0
fare,-16.7,-151.02,79.43,76.0,0.0,14.7,PF,1604123343.0
inuvik,68.35,-133.72,0.48,84.0,83.0,3.36,CA,1604123343.0
brandon,27.94,-82.29,62.11,87.0,1.0,7.02,US,1604123343.0
port moresby,-9.44,147.18,81.9,78.0,46.0,13.22,PG,1604123226.0
mana,5.66,-53.78,78.57,87.0,25.0,9.08,GF,1604123343.0
svetlaya,46.54,138.33,45.21,66.0,95.0,6.49,RU,1604123344.0
avera,33.19,-82.53,53.4,81.0,1.0,9.17,US,1604123344.0
sao filipe,14.9,-24.5,80.11,62.0,100.0,16.15,CV,1604123170.0
kenora,49.82,-94.43,33.4,80.0,90.0,14.99,CA,1604123344.0
senanga,-16.12,23.27,80.2,24.0,1.0,9.95,ZM,1604123345.0
nalut,30.33,10.85,53.31,89.0,2.0,7.92,LY,1604123345.0
roald,62.58,6.13,43.43,81.0,0.0,6.93,NO,1604123345.0
