City,Temperature,Humidity,Cloudiness,Wind Speed,Country,Date,Latitude,Longitude
hithadhoo,81.82,74,100,6.89,MV,1604389711,-0.6,73.08
nhulunbuy,87.8,58,100,12.75,AU,1604389711,-12.23,136.77
barrow,28.4,79,90,23.04,US,1604389501,71.29,-156.79
punta arenas,48.09,76,75,6.93,CL,1604389606,-53.15,-70.92
busselton,66.2,38,65,14.12,AU,1604389712,-33.65,115.33
georgetown,83.25,74,40,5.82,MY,1604389113,5.41,100.34
saint-philippe,72.99,47,20,25.28,RE,1604389712,-21.36,55.77
longyearbyen,32,93,75,40.26,SJ,1604389713,78.22,15.64
rikitea,72.12,72,100,14.2,PF,1604389713,-23.12,-134.97
ushuaia,44.6,75,0,3.36,AR,1604389410,-54.8,-68.3
vagur,47.12,71,97,33.78,FO,1604389713,61.47,-6.81
geraldton,73.4,56,86,17.22,AU,1604389132,-28.77,114.6
san policarpo,83.26,79,81,3.6,PH,1604389714,12.18,125.51
karratha,87.03,32,0,16.37,AU,1604389128,-20.74,116.85
qaanaaq,9.84,90,100,7.07,GL,1604389714,77.48,-69.36
mounana,80.6,83,40,4.7,GA,1604389715,-1.41,13.16
the valley,81.1,69,20,9.17,AI,1604389715,18.22,-63.06
esna,77,53,0,13.78,EG,1604389715,25.29,32.55
lebu,49.64,92,58,10.13,CL,1604389127,-37.62,-73.65
carnarvon,77,38,0,21.92,AU,1604389121,-24.87,113.63
chuy,55.54,89,43,6.55,UY,1604389716,-33.7,-53.46
ancud,45.45,100,90,1.03,CL,1604389716,-41.87,-73.82
dingle,83.39,80,100,8.23,PH,1604389157,11.0,122.67
bredasdorp,66.2,82,90,11.41,ZA,1604389560,-34.53,20.04
kupang,86.23,65,98,10.8,ID,1604389717,-10.17,123.58
bambous virieux,77.49,65,75,16.11,MU,1604389166,-20.34,57.76
butaritari,81.03,76,0,18.14,KI,1604389717,3.07,172.79
mehamn,39.2,86,75,14.99,NO,1604389220,71.04,27.85
puerto ayora,68,98,99,3,EC,1604389143,-0.74,-90.35
bairnsdale,75,58,21,3,AU,1604389718,-37.83,147.62
sibu,87.31,70,40,6.93,MY,1604389149,2.3,111.82
guerrero negro,68.02,80,0,9.15,MX,1604389594,27.98,-114.06
hami,56.08,33,0,5.46,CN,1604389176,42.8,93.45
kapaa,74.32,78,40,9.17,US,1604389719,22.08,-159.32
albany,40.39,71,97,1.01,US,1604389719,42.6,-73.97
vaini,75.06,79,95,22.73,TO,1604389719,-21.2,-175.2
dogondoutchi,85.95,19,52,18.01,NE,1604389719,13.64,4.03
norman wells,3.2,91,75,11.41,CA,1604389720,65.28,-126.83
plettenberg bay,75.92,52,2,6.71,ZA,1604389181,-34.05,23.37
mataura,46.96,80,0,2.48,NZ,1604389720,-46.19,168.86
ribeira grande,59,82,75,9.17,PT,1604389121,38.52,-28.7
avarua,73.4,88,100,17.22,CK,1604389720,-21.21,-159.78
pangnirtung,19.04,85,100,12.68,CA,1604389172,66.15,-65.71
nara,62.74,48,75,12.75,JP,1604389192,34.69,135.8
xiangxiang,62.83,67,74,6.82,CN,1604389721,27.73,112.53
port elizabeth,69.8,77,20,11.41,ZA,1604388857,-33.92,25.57
thompson,19.4,92,90,9.17,CA,1604389170,55.74,-97.86
kaitangata,54,72,0,3,NZ,1604389722,-46.28,169.85
iqaluit,14,85,90,36.91,CA,1604389012,63.75,-68.51
makokou,71.6,88,90,1.95,GA,1604389722,0.57,12.86
tazovskiy,14.25,97,76,8.25,RU,1604389225,67.47,78.7
bida,82.81,36,60,5.68,NG,1604389723,9.08,6.02
wenling,64.9,56,57,18.97,CN,1604389723,28.37,121.36
jamestown,40.57,64,20,14.99,US,1604389677,42.1,-79.24
yellowknife,10.13,85,90,9.17,CA,1604389503,62.46,-114.35
ormara,78.78,26,0,8.68,PK,1604389724,25.21,64.64
atuona,77.95,70,1,18.95,PF,1604389724,-9.8,-139.03
abeche,84.2,20,0,26.4,TD,1604389724,13.83,20.83
baruun-urt,30.43,72,55,11.01,MN,1604389724,46.68,113.28
te anau,51.62,81,3,2.04,NZ,1604389724,-45.42,167.72
saskylakh,9.63,95,100,9.44,RU,1604389725,71.92,114.08
winslow,48.2,42,1,3.06,US,1604389725,35.02,-110.7
riyadh,84.2,21,0,5.82,SA,1604389223,24.69,46.72
sur,83.5,28,0,7.87,OM,1604389726,22.57,59.53
mayo,40.55,48,1,5.82,US,1604389726,38.89,-76.51
cape town,76.66,60,0,4.7,ZA,1604389528,-33.93,18.42
mar del plata,56.16,93,0,4.7,AR,1604389726,-38.0,-57.56
port hedland,89.6,46,0,18.34,AU,1604389727,-20.32,118.57
cayenne,75.2,100,90,9.71,GF,1604389692,4.93,-52.33
port alfred,74.05,68,20,17.76,ZA,1604389727,-33.59,26.89
yumen,52.88,35,44,18.28,CN,1604389727,40.28,97.2
ketchikan,44.22,93,75,3.36,US,1604389007,55.34,-131.65
amalapuram,89.6,59,40,5.82,IN,1604389728,16.58,82.02
bathsheba,80.6,74,20,18.34,BB,1604389180,13.22,-59.52
cooma,71.6,37,0,5.82,AU,1604389728,-36.23,149.13
buenos aires,62.89,82,0,8.05,AR,1604389500,-34.61,-58.38
yulara,100.4,9,39,6.93,AU,1604389729,-25.24,130.99
mala,61.48,82,63,4,PE,1604389729,-12.66,-76.63
klaksvik,42.8,81,72,24.16,FO,1604389187,62.23,-6.59
myitkyina,86.31,63,23,1.45,MM,1604389729,25.38,97.4
izhma,32.41,93,99,13,RU,1604389730,65.01,53.91
ilulissat,17.6,48,100,6.93,GL,1604389133,69.22,-51.1
zhigansk,2.07,91,100,12.48,RU,1604389730,66.77,123.37
sitka,37.4,86,90,3.36,US,1604389730,57.05,-135.33
campbell river,48.4,87,90,14.99,CA,1604389730,50.02,-125.24
mareeba,81.16,54,93,21.92,AU,1604389731,-17.0,145.43
kavieng,83.62,73,78,2.55,PG,1604389731,-2.57,150.8
sibay,40.05,72,5,4.5,RU,1604389731,52.72,58.67
keizer,46.49,95,54,3.62,US,1604389558,44.99,-123.03
tessalit,76.01,19,100,20.76,ML,1604389731,20.2,1.01
santiago del estero,62.4,46,0,1.95,AR,1604389732,-27.8,-64.26
nanortalik,38.43,91,100,27.47,GL,1604389732,60.14,-45.24
hobart,77.88,34,0,16.11,AU,1604389539,-42.88,147.33
hurghada,77,50,0,18.34,EG,1604388920,27.26,33.81
mirabad,84.38,13,0,15.57,AF,1604389732,30.44,61.84
airai,73.38,67,66,3.38,TL,1604389182,-8.93,125.41
udachnyy,5,84,75,4.47,RU,1604389733,66.42,112.4
provideniya,25.83,97,100,12.08,RU,1604389733,64.38,-173.3
navolato,70.03,81,2,3,MX,1604389733,24.77,-107.69
dikson,9.28,95,0,7.47,RU,1604389734,73.51,80.55
clyde river,19.4,79,90,16.11,CA,1604389734,70.47,-68.59
khandyga,-9.54,88,6,3.04,RU,1604389734,62.67,135.6
nogliki,32.38,88,85,9.78,RU,1604389734,51.83,143.17
waingapu,86.04,64,97,10.54,ID,1604389169,-9.66,120.26
sao filipe,80.06,62,73,9.55,CV,1604389196,14.9,-24.5
yazman,91.72,9,0,8.7,PK,1604389735,29.12,71.74
madimba,82.4,61,40,9.17,TZ,1604389735,-10.4,40.33
kruisfontein,79,60,0,1.99,ZA,1604389224,-34.0,24.73
solnechnyy,27.52,95,100,2.42,RU,1604389736,50.72,136.63
nelson bay,68,56,0,10.29,AU,1604389221,-32.72,152.15
new norfolk,76.91,31,100,3,AU,1604389736,-42.78,147.06
ahipara,64,88,100,13.13,NZ,1604389736,-35.17,173.17
bangui,75.2,83,40,2.24,CF,1604389736,4.36,18.55
sayansk,32.02,94,99,3.94,RU,1604389737,54.11,102.16
cabo san lucas,73.33,82,69,1.99,MX,1604389737,22.89,-109.91
ponta do sol,66.06,77,40,13.87,PT,1604389737,32.67,-17.1
thinadhoo,82.99,71,94,7.43,MV,1604389737,0.53,72.93
jinchang,51.78,36,0,9.22,CN,1604389737,38.5,102.17
hermanus,73.99,69,4,5.01,ZA,1604389682,-34.42,19.23
namibe,69.8,77,75,5.82,AO,1604389738,-15.2,12.15
narsaq,32,90,100,1.12,GL,1604389194,60.92,-46.05
hasaki,59.95,87,75,4.7,JP,1604389738,35.73,140.83
kandrian,82.62,77,99,4.83,PG,1604389738,-6.22,149.55
bluff,50.58,76,0,1.03,NZ,1604389739,-46.6,168.33
lampang,92.19,47,40,2.24,TH,1604389739,18.33,99.5
severo-kurilsk,45.86,89,100,33.06,RU,1604389739,50.68,156.12
lipari,64.33,77,98,2.59,IT,1604389739,38.47,14.95
chapais,15.8,85,90,8.05,CA,1604389154,49.78,-74.85
kodiak,24.8,49,1,11.41,US,1604389740,57.79,-152.41
ponta delgada,57.2,87,75,13.87,PT,1604389740,37.73,-25.67
tiznit,67.98,25,0,4.76,MA,1604389740,29.58,-9.5
malacacheta,59.23,92,100,4.43,BR,1604389740,-17.84,-42.08
camacari,75.2,94,90,11.41,BR,1604389741,-12.7,-38.32
tongliao,34.36,56,0,12.35,CN,1604389741,43.61,122.27
marion,38.91,51,20,10.29,US,1604389573,39.77,-86.16
flinders,64.99,71,0,3,AU,1604389741,-34.58,150.86
rocha,50.32,94,8,1.7,UY,1604389742,-34.48,-54.33
lima,62.29,88,90,5.82,PE,1604389196,-12.04,-77.03
peniche,57.69,76,0,18.99,PT,1604389446,39.36,-9.38
zarichne,47.17,84,100,7.43,UA,1604389742,51.81,26.13
khatanga,7.65,95,100,3.6,RU,1604389684,71.97,102.5
cidreira,59.07,82,14,1.45,BR,1604389184,-30.18,-50.21
bereda,44.92,100,41,1.99,ES,1604389154,43.27,-7.54
torbay,48.33,87,90,18.34,CA,1604389174,47.67,-52.73
asfi,64.74,86,10,12.8,MA,1604389179,32.3,-9.24
kurchum,44.82,55,100,5.21,KZ,1604389743,48.57,83.65
salalah,84.2,39,0,12.75,OM,1604389743,17.02,54.09
utica,35.67,92,100,5.01,US,1604389744,43.1,-75.23
chokurdakh,-12.66,86,93,9.28,RU,1604389151,70.63,147.92
warwick,40.5,55,20,20.8,US,1604389744,41.7,-71.42
coihaique,46.4,87,0,2.24,CL,1604389744,-45.58,-72.07
pisco,62.33,88,75,11.41,PE,1604389744,-13.7,-76.22
faanui,79.63,80,2,17.92,PF,1604389180,-16.48,-151.75
vallenar,53.96,69,0,0.34,CL,1604389745,-28.57,-70.76
spanish town,74.62,88,75,5.82,JM,1604389745,17.99,-76.96
rawson,66.36,43,100,7.02,AR,1604389193,-43.3,-65.1
fortuna,41,100,20,2.89,US,1604389082,40.6,-124.16
coquimbo,53.6,87,3,2.24,CL,1604389226,-29.95,-71.34
boa vista,77,83,75,5.82,BR,1604389532,2.82,-60.67
lompoc,52.32,100,90,3.6,US,1604389447,34.64,-120.46
arraial do cabo,67.32,68,43,3.13,BR,1604389747,-22.97,-42.03
castro,52.23,84,100,7.49,BR,1604389602,-24.79,-50.01
kasongo-lunda,83.66,66,8,1.34,CD,1604389747,-6.47,16.82
upernavik,15.22,87,70,7.34,GL,1604389685,72.79,-56.15
hofn,40.46,67,100,14.97,IS,1604389748,64.25,-15.21
ardabil,62.6,28,90,6.93,IR,1604389748,38.25,48.29
tasiilaq,26.6,53,32,2.24,GL,1604389690,65.61,-37.64
sokol,41.32,90,100,13.04,RU,1604389748,59.46,40.12
gisborne,64,76,99,1.99,NZ,1604389749,-38.65,178.0
moerai,76.5,85,100,14.63,PF,1604389749,-22.43,-151.33
reconquista,55.29,78,0,5.86,AR,1604389749,-29.15,-59.65
richards bay,80.64,63,0,10.98,ZA,1604389750,-28.78,32.04
eureka,42.85,100,90,2.28,US,1604389750,40.8,-124.16
dolores,52.45,94,0,5.12,AR,1604389750,-36.31,-57.68
bengkulu,78.6,85,100,2.13,ID,1604389710,-3.8,102.27
traverse city,39.52,80,1,3.36,US,1604389751,44.76,-85.62
talnakh,8.6,84,40,4.47,RU,1604389751,69.49,88.4
nikolskoye,46.13,87,90,13.42,RU,1604389751,59.7,30.79
lasa,44.6,87,75,4.7,IT,1604389751,46.62,10.7
tabuk,78.35,84,100,9.57,PH,1604389752,17.42,121.44
boyolangu,83.43,73,99,6.17,ID,1604389752,-8.12,111.89
tiksi,7.41,94,100,3.62,RU,1604389752,71.69,128.87
mount gambier,82.4,24,100,21.92,AU,1604389182,-37.83,140.77
vuktyl,27.37,95,65,14.14,RU,1604389753,63.86,57.31
hilo,72.97,88,20,5.53,US,1604389753,19.73,-155.09
nizhnyaya tavda,32.14,93,0,4.14,RU,1604389753,57.67,66.17
ascension,42.28,93,1,5.26,US,1604389753,30.22,-90.9
catuday,81.97,77,77,3.85,PH,1604389754,16.29,119.81
saldanha,60.8,67,75,23.04,ZA,1604389754,-33.01,17.94
pangkalanbuun,85.05,75,99,4.52,ID,1604389189,-2.68,111.62
bucerias,75.99,85,0,4.7,MX,1604389754,20.75,-105.33
san vicente,55.15,79,2,2.37,AR,1604389754,-26.62,-54.13
ostrovnoy,44.22,86,69,26.06,RU,1604389203,68.05,39.51
tateyama,65.53,72,20,5.82,JP,1604389755,34.98,139.87
kununurra,105.8,16,91,6.93,AU,1604389755,-15.77,128.73
orcopampa,45.97,57,52,0.29,PE,1604389755,-15.27,-72.34
bethel,36.7,51,1,10.29,US,1604389755,41.37,-73.41
victoria,75.29,66,72,1.99,HK,1604389756,22.29,114.16
sangar,-5.37,90,0,2.17,RU,1604389756,63.92,127.47
emba,56.41,36,0,9.1,KZ,1604389756,48.83,58.14
yakeshi,13.91,90,0,9.31,CN,1604389756,49.28,120.73
kyrnasivka,46.11,68,19,3.02,UA,1604389756,48.6,28.98
aksarka,30.88,97,100,10.13,RU,1604389757,66.56,67.8
mahina,80.29,65,75,5.82,PF,1604389757,-17.51,-149.49
maceio,75.2,94,0,2.24,BR,1604389159,-9.67,-35.74
vestmannaeyjar,41,80,75,21.92,IS,1604389757,63.44,-20.27
alexandria,73.4,49,40,9.17,EG,1604389757,31.22,29.96
soyo,80.6,83,75,4.7,AO,1604389758,-6.13,12.37
lovington,48.16,54,1,6.93,US,1604389758,32.94,-103.35
constitucion,51.8,89,70,7.63,CL,1604389480,-35.33,-72.42
kiruna,39.2,90,25,12.75,SE,1604389758,67.86,20.23
nuuk,30.09,92,100,28.86,GL,1604389758,64.18,-51.72
rudnogorsk,27.82,95,99,7.4,RU,1604389759,57.26,103.75
horsham,47.55,87,40,12.75,GB,1604389759,51.06,-0.33
sembakung,86.04,74,55,5.23,ID,1604389759,3.82,117.25
scottsbluff,45.37,74,1,10.11,US,1604389760,41.87,-103.67
mattoon,39.16,56,1,9.17,US,1604389760,39.48,-88.37
sorland,46.4,61,75,19.46,NO,1604389760,67.67,12.69
iskateley,33.53,91,100,20.51,RU,1604389760,67.68,53.15
laurel,41.04,38,1,12.84,US,1604389691,39.1,-76.85
aswan,80.26,36,0,12.1,EG,1604389761,24.09,32.91
vao,75.13,86,100,12.15,NC,1604389223,-22.67,167.48
biak,75.07,86,100,1.07,ID,1604389761,-0.91,122.88
shouguang,62.01,21,0,1.01,CN,1604389762,36.88,118.74
lalpur,91.63,18,0,8.75,IN,1604389762,22.2,69.97
hohhot,44.6,22,0,6.71,CN,1604389762,40.81,111.65
price,42.8,35,1,4.7,US,1604389627,39.6,-110.81
smithers,41,93,40,2.24,CA,1604389762,54.78,-127.17
puerto escondido,76.06,54,96,7.56,MX,1604389763,15.85,-97.07
bintulu,87.39,74,20,8.05,MY,1604389763,3.17,113.03
vangaindrano,78.75,60,67,8.72,MG,1604389763,-23.35,47.6
yar-sale,25.72,98,100,3.36,RU,1604389763,66.83,70.83
kollam,89.6,75,20,4.7,IN,1604389764,8.88,76.6
aripuana,71.22,96,100,1.28,BR,1604389764,-9.17,-60.63
saint anthony,38.46,80,1,3.6,US,1604389764,45.02,-93.22
saint george,61.39,59,20,5.82,US,1604389720,37.1,-113.58
peleduy,19.92,95,100,8.14,RU,1604389764,59.63,112.74
tuktoyaktuk,10.96,96,91,7.96,CA,1604389765,69.45,-133.04
nizwa,88.36,10,0,5.26,OM,1604389765,22.93,57.53
ucluelet,52,92,100,4,CA,1604389502,48.93,-125.55
bulgan,35.46,70,100,1.59,MN,1604389765,48.81,103.53
liberty,39.65,93,1,1.54,US,1604389765,31.83,-81.5
giyani,86.88,39,20,3.89,ZA,1604389766,-23.3,30.72
porbandar,89.65,32,0,2.04,IN,1604389193,21.64,69.61
shakhty,53.6,93,40,6.71,RU,1604389766,47.71,40.21
beira,84.09,62,40,5.82,MZ,1604389766,-19.84,34.84
anloga,78.8,88,20,2.24,GH,1604389227,5.79,0.9
sovetsk,54.61,90,100,7.07,RU,1604389767,55.08,21.88
lata,51.39,89,4,1.99,PT,1604389767,40.16,-8.33
ust-kuyga,-6.66,88,100,6.85,RU,1604389767,70.02,135.6
fenyi,64.9,51,82,3.85,CN,1604389767,27.81,114.67
byron bay,66.88,56,12,16.11,AU,1604389768,-28.65,153.62
astana,28.4,86,90,6.71,KZ,1604389768,51.18,71.45
dawlatabad,77.25,15,0,5.44,AF,1604389768,36.41,64.91
san patricio,55.98,87,1,3.36,US,1604389768,28.02,-97.52
east london,75.2,60,0,10.29,ZA,1604389769,-33.02,27.91
lavrentiya,23.45,92,100,8.23,RU,1604389769,65.58,-171.0
kloulklubed,87.8,66,75,8.05,PW,1604389769,7.04,134.26
poum,77.94,79,100,12.8,NC,1604389769,-20.23,164.02
kjollefjord,39.2,86,75,14.99,NO,1604389769,70.95,27.35
korla,55.69,34,100,10.07,CN,1604388934,41.76,86.15
chiquilistlan,51.06,60,0,5.06,MX,1604389770,20.2,-103.82
praia da vitoria,59.58,72,75,17.2,PT,1604389770,38.73,-27.07
port augusta,90.55,15,40,11.41,AU,1604389770,-32.5,137.77
hermosillo,73.11,34,0,3,MX,1604389478,29.07,-110.97
don benito,57.99,96,100,5.01,ES,1604389771,38.96,-5.86
kahului,74.59,74,20,6.93,US,1604389771,20.89,-156.47
brookhaven,39.96,86,1,2.89,US,1604389721,31.58,-90.44
sept-iles,23.76,62,78,16.11,CA,1604389771,50.2,-66.38
ndende,75.2,88,90,2.13,GA,1604389771,-2.4,11.36
sisimiut,22.95,81,100,19.17,GL,1604389681,66.94,-53.67
port hawkesbury,34.23,74,90,14.99,CA,1604389772,45.62,-61.35
kaeo,66.99,92,100,10,NZ,1604389772,-35.1,173.78
coos bay,45.79,100,90,5.82,US,1604389772,43.37,-124.22
miri,87.4,70,40,9.17,MY,1604389773,4.41,114.01
kavaratti,86,74,20,4.7,IN,1604389773,10.57,72.64
gornoye loo,59.2,59,20,4.47,RU,1604389773,43.71,39.6
vila franca do campo,57.2,87,75,13.87,PT,1604389773,37.72,-25.43
santa cruz de la palma,68.52,73,40,14.99,ES,1604389205,28.68,-17.76
midland,52.27,53,1,5.82,US,1604389774,32.0,-102.08
malakal,94.86,46,77,1.61,SS,1604389774,9.53,31.66
kudahuvadhoo,83.53,66,3,7.25,MV,1604389774,2.67,72.89
kamina,79.81,65,19,3.44,CD,1604389774,-8.74,24.99
luderitz,62.65,79,97,7.58,NA,1604389189,-26.65,15.16
rantepao,76.87,74,59,3.76,ID,1604389775,-2.97,119.9
okhotsk,30.51,97,100,15.82,RU,1604389775,59.38,143.3
dmytrivka,52.48,55,67,4.61,UA,1604389775,45.97,28.99
christchurch,54.28,93,100,13.87,NZ,1604389659,-43.53,172.63
maloy,44.76,76,40,18.34,NO,1604389776,61.94,5.11
katangli,31.32,90,93,8.7,RU,1604389776,51.71,143.23
tirano,48.69,100,0,2.24,IT,1604389777,46.22,10.17
shakiso,70.09,62,52,9.26,ET,1604389777,5.75,38.92
kampot,88.83,55,0,10.29,KH,1604389777,10.62,104.18
kamenka,49.82,78,100,6.73,RU,1604389200,51.32,42.77
road town,81.34,84,100,10,VG,1604389778,18.42,-64.62
kayerkan,8.6,84,40,4.47,RU,1604389778,69.35,87.76
rathdrum,36.21,74,1,4.7,US,1604389778,47.81,-116.89
keti bandar,86.86,28,0,12.06,PK,1604389778,24.14,67.45
pingliang,44.01,56,100,1.01,CN,1604389779,35.54,106.69
omboue,81.21,79,48,4.09,GA,1604389779,-1.57,9.26
dongsheng,44.37,46,0,9.71,CN,1604389779,39.82,109.98
moron,62.31,90,0,5.84,AR,1604389779,-34.65,-58.62
tam ky,82.4,65,20,11.41,VN,1604389779,15.57,108.48
bubaque,84.33,65,0,6.42,GW,1604389780,11.28,-15.83
gigmoto,83.07,81,100,3.44,PH,1604389780,13.78,124.39
dunedin,53.46,84,21,1.01,NZ,1604389780,-45.87,170.5
noumea,73.4,88,100,1.12,NC,1604389780,-22.28,166.46
laguna,54.77,62,1,4.7,US,1604389698,38.42,-121.42
itoman,75.15,57,40,29.97,JP,1604389781,26.12,127.67
batagay-alyta,-3.89,87,98,2.17,RU,1604389781,67.8,130.41
puro,84.6,72,100,5.68,PH,1604389781,12.48,123.38
srednekolymsk,-6.81,83,0,2.1,RU,1604389190,67.45,153.68
socorro,56.1,43,75,4.7,US,1604389782,31.65,-106.3
mayskiy,53.6,93,40,8.95,RU,1604389782,47.69,40.1
harlingen,57.63,93,1,4.7,US,1604389782,26.19,-97.7
okha,32.25,92,100,7.61,RU,1604389782,53.57,142.95
sambava,79.18,60,15,11.79,MG,1604389782,-14.27,50.17
hazorasp,66.2,20,0,6.93,UZ,1604389783,41.32,61.07
oistins,80.6,74,20,18.34,BB,1604389783,13.07,-59.53
lorengau,83.64,72,80,3.71,PG,1604389783,-2.02,147.27
manggar,81.01,80,100,10.47,ID,1604389783,-2.88,108.27
palmer,36.18,59,90,9.17,US,1604389575,42.16,-72.33
kaohsiung,80.76,61,40,10.29,TW,1604389194,22.62,120.31
meulaboh,80.2,83,100,1.05,ID,1604389219,4.14,96.13
xining,51.15,40,22,3.62,CN,1604389784,36.62,101.77
erdenet,32.86,77,98,5.21,MN,1604389720,49.03,104.08
morondava,83.12,59,0,9.28,MG,1604389681,-20.28,44.28
olafsvik,40.75,72,58,11.27,IS,1604389222,64.89,-23.71
birobidzhan,24.4,82,100,15.84,RU,1604389785,48.8,132.95
san jose,57.25,76,40,4.7,US,1604389495,37.34,-121.89
altamont,37.35,59,1,1.23,US,1604389785,42.21,-121.74
saint-pierre,73.47,47,20,25.28,RE,1604389786,-21.34,55.48
marawi,84,78,100,5.01,PH,1604389786,8.0,124.29
souillac,77,65,75,16.11,MU,1604389225,-20.52,57.52
beloha,95.76,27,0,7.67,MG,1604389201,-25.17,45.05
bay roberts,47.73,87,90,16.11,CA,1604389787,47.6,-53.26
sola,78.6,84,100,9.91,VU,1604389787,-13.88,167.55
mochishche,30.2,86,90,8.95,RU,1604389787,55.16,83.12
matara,87.39,63,14,9.98,LK,1604389188,5.95,80.54
maicao,76.98,87,100,4.41,CO,1604389719,11.38,-72.24
chadan,36.91,72,100,3.04,RU,1604389788,51.28,91.58
grindavik,41,75,75,18.34,IS,1604389788,63.84,-22.43
kostinbrod,51.8,93,90,4.7,BG,1604389788,42.82,23.22
dukat,9.25,95,100,2.98,RU,1604389788,62.55,155.55
isangel,75.25,90,100,7.9,VU,1604389789,-19.55,169.27
shache,64.04,24,0,2.62,CN,1604389789,38.42,77.24
arman,35.67,87,100,33.64,RU,1604389789,59.7,150.17
horodnytsya,44.24,79,100,5.26,UA,1604389789,50.81,27.32
agadir,55.4,82,0,4.7,MA,1604389511,30.42,-9.6
ambanja,87.8,45,20,4.7,MG,1604389790,-13.68,48.45
mahebourg,77,65,75,16.11,MU,1604389790,-20.41,57.7
amarante do maranhao,72.52,94,100,2.04,BR,1604389790,-5.57,-46.74
mauguio,57.2,87,0,3.36,FR,1604389791,43.62,4.01
anton lizardo,75,52,100,13,MX,1604389791,19.05,-95.98
halifax,33.84,69,78,17.22,CA,1604389500,44.65,-63.57
katobu,77.22,89,100,4.74,ID,1604389201,-4.94,122.53
torata,47.37,64,93,1.21,PE,1604389791,-17.08,-70.84
harper,79.81,83,1,5.77,LR,1604389212,4.38,-7.72
tuatapere,45.77,85,3,0.36,NZ,1604389792,-46.13,167.68
buin,57.25,93,59,3.36,CL,1604389792,-33.73,-70.75
port lincoln,68.81,73,100,15.41,AU,1604389499,-34.73,135.87
maumere,84.88,67,77,0.85,ID,1604389792,-8.62,122.21
diamantino,72.43,81,7,1.3,BR,1604389793,-14.41,-56.45
aklavik,-0.4,84,98,2.24,CA,1604389793,68.22,-135.01
santa cruz,73.4,43,20,5.82,BO,1604389769,-17.8,-63.17
cairns,84.2,54,100,21.92,AU,1604389554,-16.92,145.77
atambua,84.47,58,58,2.42,ID,1604389794,-9.11,124.89
rio grande,60.01,85,13,12.86,BR,1604389794,-32.03,-52.1
lillooet,50.68,50,1,13.87,CA,1604389794,50.69,-121.94
nishihara,75.15,57,40,29.97,JP,1604389794,26.18,127.76
pokhara,82.78,31,70,4.23,NP,1604389725,28.23,83.98
placido de castro,70.81,68,85,0.22,BR,1604389795,-10.34,-67.19
lagoa,62.04,73,0,19.26,PT,1604389795,39.05,-27.98
husavik,35.6,86,90,20.8,IS,1604389795,66.04,-17.34
saint-junien,47.8,93,0,6.93,FR,1604389795,45.88,0.9
northam,47.68,82,90,20,GB,1604389796,51.03,-4.22
nouakchott,71.6,24,14,9.17,MR,1604389796,18.09,-15.98
nouadhibou,69.8,46,0,16.11,MR,1604389205,20.93,-17.03
cherskiy,-7.29,89,29,8.63,RU,1604389796,68.75,161.3
haines junction,1.4,70,100,3.36,CA,1604389797,60.75,-137.51
fairbanks,-19.8,74,20,1.34,US,1604389502,64.84,-147.72
tatvan,51.8,93,75,1.12,TR,1604389797,38.51,42.28
bandarbeyla,81.34,70,38,21.61,SO,1604389797,9.49,50.81
farias brito,73.4,94,75,5.82,BR,1604389797,-6.93,-39.57
san jacinto,57.31,54,0,0.49,US,1604389798,33.78,-116.96
sao joao da barra,64.35,76,3,6.51,BR,1604389798,-21.64,-41.05
shimoda,68,72,20,5.82,JP,1604389798,34.67,138.95
ranong,89.6,66,40,10.29,TH,1604389798,9.97,98.63
bilma,77.76,18,0,9.69,NE,1604389222,18.69,12.92
touros,73.4,94,40,3.36,BR,1604389799,-5.2,-35.46
katsuura,62.42,76,48,1.99,JP,1604389685,35.13,140.3
esperance,62.6,77,75,16.11,AU,1604389799,-33.87,121.9
benjamin constant,75.2,100,0,0.83,BR,1604389800,-4.38,-70.03
baykit,24.53,94,100,9.1,RU,1604389680,61.67,96.37
hokitika,54.64,94,100,5.23,NZ,1604389800,-42.72,170.97
kualakapuas,85.08,75,89,4.83,ID,1604389217,-3.01,114.39
bonito,67.24,64,38,1.1,BR,1604389801,-21.12,-56.48
acarau,77.32,87,36,8.72,BR,1604389704,-2.89,-40.12
flin flon,35.33,98,100,4.21,CA,1604389801,54.77,-101.86
hastings,48.78,81,100,8.01,GB,1604389801,50.86,0.57
hollola,51.01,99,38,5.01,FI,1604389802,61.05,25.43
oleksandrivka,46.76,83,92,6.06,UA,1604389802,48.96,32.23
barcelos,48.65,81,0,8.05,PT,1604389802,41.54,-8.62
vyazemskiy,27.72,84,100,14.99,RU,1604389802,47.54,134.75
la asuncion,87.8,66,100,10.29,VE,1604389803,11.03,-63.86
otane,59,89,100,3,NZ,1604389803,-39.88,176.63
simoes,71.31,90,88,5.44,BR,1604389803,-7.6,-40.82
ha tinh,70.54,85,98,7.27,VN,1604389804,18.33,105.9
iquique,62.6,67,90,3.36,CL,1604389804,-20.22,-70.14
kastamonu,42.8,70,0,3.36,TR,1604389805,41.5,33.67
luwuk,77.14,79,100,0.36,ID,1604389805,-0.95,122.79
quelimane,86,70,40,9.17,MZ,1604389805,-17.88,36.89
nantucket,44.01,70,90,20.8,US,1604389771,41.28,-70.1
porto novo,78.8,88,40,4.7,BJ,1604389669,6.5,2.6
iglesias,55.38,81,20,3.36,IT,1604389806,39.31,8.54
herat,69.8,19,0,3.36,AF,1604389806,34.5,62.0
payyannur,80.6,88,75,3.36,IN,1604389806,12.1,75.2
linxia,52,43,86,3.11,CN,1604389807,35.6,103.21
haines city,56.35,76,1,16.11,US,1604389807,28.11,-81.62
hearst,17.6,85,100,3.36,CA,1604389807,49.68,-83.67
lloydminster,48.2,45,1,11.41,CA,1604389807,53.28,-110.0
la ronge,36.5,74,92,5.82,CA,1604389807,55.1,-105.28
zarnesti,48.2,93,90,9.17,RO,1604389808,45.3,26.87
hamilton,39.78,48,1,9.17,US,1604389808,39.18,-84.53
saint-joseph,75.79,47,20,25.28,RE,1604389808,-21.37,55.62
ostersund,39.11,80,0,5.82,SE,1604389808,63.18,14.64
mirnyy,17.6,85,95,6.71,RU,1604389809,62.54,113.96
hof,49.98,81,90,8.05,DE,1604389809,50.32,11.92
praxedis guerrero,56.25,43,75,4.7,MX,1604389809,31.37,-106.02
samana,76.51,85,99,4.41,DO,1604389810,19.21,-69.34
lewistown,40.46,35,1,19.46,US,1604389810,40.6,-77.57
pecos,50,53,1,4.7,US,1604389810,31.42,-103.49
quang ngai,78.73,80,85,13.24,VN,1604389810,15.12,108.8
saint-georges,80.6,78,20,16.11,GD,1604389811,12.06,-61.75
segovia,53.85,93,75,1.12,ES,1604389811,41.17,-4.0
lhokseumawe,84.51,69,55,3.33,ID,1604389811,5.18,97.15
maputo,82.13,54,40,10.29,MZ,1604389811,-25.97,32.59
broome,38.66,59,75,18.34,US,1604389811,42.25,-75.83
chilca,62.11,88,90,5.82,PE,1604389812,-12.52,-76.74
glazov,31.23,90,0,5.19,RU,1604389812,58.14,52.66
whitianga,64.99,91,100,5.99,NZ,1604389812,-36.83,175.7
kemijarvi,42.1,91,76,9.98,FI,1604389812,66.71,27.43
argentan,48.2,81,40,17.22,FR,1604389812,48.75,-0.02
falam,66.67,100,93,0.89,MM,1604389813,22.92,93.68
martapura,82.15,86,100,2.64,ID,1604389813,-3.42,114.85
monywa,85.77,70,96,1.63,MM,1604389813,22.12,95.13
filimonovo,31.35,93,100,7.45,RU,1604389813,56.2,95.46
san cristobal,64.47,85,95,1.61,VE,1604389813,7.77,-72.22
imeni poliny osipenko,23.97,94,100,9.4,RU,1604389814,52.42,136.49
chara,-0.42,78,100,0.6,RU,1604389814,56.91,118.26
huarmey,59,85,0,5.57,PE,1604389814,-10.07,-78.15
linkoping,48.15,81,20,6.93,SE,1604389814,58.41,15.62
bambey,73.4,83,80,11.41,SN,1604389815,14.7,-16.45
hare bay,44.98,65,100,16.11,CA,1604389815,48.85,-54.01
linjiang,29.41,75,0,7.78,CN,1604389815,41.81,126.91
illapel,53.17,68,0,0.76,CL,1604389816,-31.63,-71.17
naze,71.6,56,75,21.92,JP,1604389816,28.37,129.48
rolla,46.11,49,1,10.29,US,1604389569,37.95,-91.77
manoel urbano,71.94,79,76,0.63,BR,1604389817,-8.84,-69.26
nome,21.24,73,90,6.93,US,1604389574,64.5,-165.41
lovozero,39.9,93,100,8.93,RU,1604389817,68.0,35.01
padang,77.16,83,100,1.95,ID,1604389817,-0.95,100.35
beringovskiy,28.47,90,100,12.3,RU,1604389817,63.05,179.32
lampa,53.89,93,9,3.36,CL,1604389818,-33.28,-70.9
nortelandia,72.12,75,0,1.63,BR,1604389818,-14.45,-56.8
mindelo,75.2,83,40,19.46,CV,1604389818,16.89,-24.98
naranjal,71.56,78,40,5.82,EC,1604389818,-2.67,-79.62
semirom,63.34,17,34,3.62,IR,1604389819,31.42,51.57
winnemucca,35.6,29,1,3.36,US,1604389819,40.97,-117.74
calabozo,72.07,95,57,5.3,VE,1604389819,8.92,-67.43
agirish,31.41,90,36,9.04,RU,1604389819,61.92,63.02
bafra,62.6,67,40,2.24,TR,1604389820,41.57,35.91
mizdah,63.16,57,17,3.78,LY,1604389820,31.45,12.98
namtsy,-4,83,0,4.47,RU,1604389820,62.72,129.67
natchitoches,39.2,100,1,2.1,US,1604389682,31.77,-93.13
baracoa,78.62,84,100,5.66,CU,1604389820,20.35,-74.5
garowe,84.07,48,54,12.19,SO,1604389821,8.41,48.48
yeppoon,78.8,50,0,8.05,AU,1604389821,-23.13,150.73
morant bay,74.66,88,75,5.82,JM,1604389821,17.88,-76.41
mount isa,100.4,11,4,8.05,AU,1604389821,-20.73,139.5
zhuanghe,40.64,56,0,14.29,CN,1604389822,39.7,122.99
ust-omchug,14.2,94,100,8.19,RU,1604389822,61.15,149.63
pevek,10.45,93,100,25.03,RU,1604389822,69.7,170.31
adrar,76.12,19,100,13.15,MR,1604389822,20.5,-10.07
san ramon,54.63,50,1,4.7,US,1604389823,37.78,-121.98
liepaja,53.6,81,93,13.87,LV,1604389823,56.54,21.04
sulangan,84.63,69,100,2.1,PH,1604389823,11.14,123.72
launceston,66.74,48,100,19.46,AU,1604389821,-41.45,147.17
genhe,16.88,88,0,6.17,CN,1604389823,50.78,121.52
babstovo,21.43,89,100,16.55,RU,1604389824,48.12,132.48
yumbe,77.88,69,100,7.87,UG,1604389824,3.47,31.25
nha trang,87.8,66,40,20.8,VN,1604389824,12.25,109.18
rongcheng,60.51,43,0,7.29,CN,1604389645,30.63,117.85
roald,43.92,70,40,19.46,NO,1604389824,62.58,6.13
margate,51.75,66,88,13,GB,1604389825,51.38,1.39
nuevo progreso,59.7,86,4,6.53,MX,1604389825,23.17,-97.95
sri aman,89.31,66,40,2.24,MY,1604389825,1.24,111.46
coria,54,59,100,3,ES,1604389825,39.99,-6.54
santa lucia,68.34,77,40,18.34,ES,1604389826,27.91,-15.54
vardo,44.6,87,75,25.28,NO,1604389826,70.37,31.11
qasigiannguit,17.6,48,100,6.93,GL,1604389826,68.82,-51.19
minas,53.82,93,0,3.36,UY,1604389826,-34.38,-55.24
kungurtug,31.57,83,79,1.36,RU,1604389826,50.6,97.52
anadyr,14,85,20,13.42,RU,1604389827,64.75,177.48
mackay,77.67,65,0,17.22,AU,1604389827,-21.15,149.2
paracuru,80.01,77,99,15.01,BR,1604389827,-3.41,-39.03
evensk,27.07,93,100,13.85,RU,1604389828,61.95,159.23
marienburg,53.98,100,77,6.26,PL,1604389828,54.04,19.03
wad rawah,94.19,26,0,14.85,SD,1604389828,15.16,33.14
santa isabel do rio negro,73.63,93,67,1.14,BR,1604389828,-0.41,-65.02
taoudenni,81.9,18,100,5.68,ML,1604389828,22.68,-3.98
buala,78.6,80,100,0.47,SB,1604389829,-8.14,159.59
vertou,47.17,81,0,9.17,FR,1604389829,47.17,-1.47
okulovka,46,80,100,13.69,RU,1604389829,58.4,33.29
nicoya,73.67,95,100,2.3,CR,1604389829,10.15,-85.45
takoradi,80.42,82,55,2.82,GH,1604389830,4.88,-1.76
okahandja,74.62,13,0,3.36,NA,1604389830,-21.98,16.92
jalu,69.94,55,0,4.63,LY,1604389830,29.03,21.55
khani,60.8,87,75,3.36,GE,1604389830,41.96,42.96
florianopolis,64.4,82,75,4.7,BR,1604389831,-27.61,-48.5
meadow lake,47.43,50,40,3.36,US,1604389831,34.8,-106.54
qinggang,24.06,72,0,10.16,CN,1604389831,46.68,126.08
san lorenzo,68,52,0,5.82,PY,1604389831,-25.33,-57.53
luancheng,59,16,0,4.47,CN,1604389832,37.88,114.65
prince george,43.45,100,90,12.75,CA,1604389832,53.92,-122.75
san antonio,46.4,65,1,3.36,US,1604389769,29.42,-98.49
kompaniyivka,46.47,80,100,3.74,UA,1604389833,48.25,32.21
mahibadhoo,83.77,65,0,4.5,MV,1604389833,3.78,72.97
charlestown,65.77,59,0,9.17,AU,1604389833,-32.95,151.67
tashla,50.72,48,18,10.49,RU,1604389833,51.77,52.74
sredniy ikorets,52.23,77,32,8.93,RU,1604389834,51.07,39.76
caravelas,70.93,76,100,8.28,BR,1604389834,-17.71,-39.25
kieta,81.9,74,100,2.73,PG,1604389834,-6.22,155.63
kutum,78.73,24,13,17.54,SD,1604389834,14.2,24.67
keetmanshoop,78.8,41,0,6.93,NA,1604389834,-26.58,18.13
vila velha,66.2,88,75,3.36,BR,1604389835,-20.33,-40.29
verkhnevilyuysk,8.98,92,100,5.01,RU,1604389835,63.45,120.32
marsh harbour,70.43,77,0,25.86,BS,1604389835,26.54,-77.06
olivet,45.54,93,75,8.05,FR,1604389835,47.86,1.9
bluefields,74.95,88,100,14.85,NI,1604389836,12.01,-83.76
jorpeland,47.35,71,40,4.7,NO,1604389836,59.02,6.04
porto santo,68,88,75,14.99,PT,1604389836,33.07,-16.34
san ignacio,73.69,94,90,4.61,BZ,1604389836,17.16,-89.07
paita,60.94,90,79,8.32,PE,1604389837,-5.09,-81.11
turukhansk,18.14,97,100,9.62,RU,1604389837,65.82,87.98
saint-louis,78.8,47,0,6.85,SN,1604389837,16.33,-15.0
sapucai,60.33,63,0,3.4,PY,1604389837,-25.67,-56.92
